X,Y,OBJECTID,Facility_ID,FacilityName,StreetNo,StreetName,StreetType,SuburbTown,Postcode,Latitude,Longitude,FaciltySportPlayedID,SportsPlayed,NumberFieldCourts,FieldSurfaceType,FacilityAge,FacilityCondition,FacilityUpgradeAge,Changerooms,LGA
144.640316,-37.898601,9001,WYNDHA8530,Werribee Sports & Fitness Centre,,Ballan,Road,WERRIBEE,3030,-37.898601,144.640316,26686,Netball,5,Hard Court,,4. Good,,"Female, Male",WYNDHAM
144.7275,-37.872,9002,WYNDHA11288,Hoppers Indoor Sportz,,Graham,Court,HOPPERS CROSSING,3029,-37.872,144.7275,26982,Netball (indoor),2,,,,,,WYNDHAM
144.659074,-37.913492,9003,WYNDHA8521,Riverside Indoor Sports,13,Riverside,Avenue,WERRIBEE,3030,-37.913492,144.659074,26667,Netball (Indoor),5,Carpet Playing Surface,,,,,WYNDHAM
144.67498,-37.924111,9004,WYNDHA8516,National Equestrian Centre,,K,Road,WERRIBEE,3030,-37.924111,144.67498,26653,Polo,2,,,,,,WYNDHAM
144.71783,-37.840037,9005,WYNDHA5496,Clearwood Drive Reserve,,Clearwood,Drive,TRUGANINA,,-37.840037,144.71783,27809,Rugby League,2,,0 - 5 Years,,New facility under construction,,WYNDHAM
144.609389,-37.897069,9006,WYNDHA11000,Haines Drive Reserve,,Haines,Road,WYNDHAM VALE,3024,-37.897069,144.609389,27810,Rugby League,2,,0 - 5 Years,5. Very Good,,"Female, Male, Umpire/Officials",WYNDHAM
144.692478,-37.877437,9008,WYNDHA8514,Mossfiel Reserve,,Heaths,Road,HOPPERS CROSSING,3029,-37.877437,144.692478,26647,Rugby Union,2,Grass,26 - 50 Years,3. Average,N/A,"Umpire/Officials, Unisex",WYNDHAM
144.640603,-37.898303,9009,WYNDHA11205,Wyndham Handgun Club,,Ballan,Road,WERRIBEE,3030,-37.898303,144.640603,27283,Shooting Sports,,,,,,,WYNDHAM
144.735336,-37.880556,9010,WYNDHA8492,Boardwalk Skate Park,,Boardwalk,Boulevard,POINT COOK,3030,-37.880556,144.735336,26594,Skating,1,Concrete,0 - 5 Years,3. Average,N/A,,WYNDHAM
144.497406,-37.961417,9011,WYNDHA8512,Little River Reserve,,You Yangs,Road,LITTLE RIVER,3211,-37.961417,144.497406,26640,Skating,1,Concrete,,,,,WYNDHAM
144.634572,-37.88181,9013,WYNDHA8518,Presidents Park,,McGraths,Road,WERRIBEE,3030,-37.88181,144.634572,26658,Skating,1,Concrete,6 - 10 Years,3. Average,,,WYNDHAM
144.729419,-37.860804,9014,WYNDHA10998,Forsyth Road Reserve,,Forsyth,Road,TRUGANINA,3029,-37.860804,144.729419,26567,Soccer,2,Grass,0 - 5 Years,5. Very Good,,"Female, Male, Umpire/Officials, Unisex",WYNDHAM
144.650409,-37.88706,9016,WYNDHA8502,Galvin Park,,Shaws,Road,WERRIBEE,3030,-37.88706,144.650409,26619,Soccer,3,Grass,11 - 25 Years,4. Good,Upgrade in progress,"Umpire/Officials, Unisex",WYNDHAM
144.676572,-37.860885,9017,WYNDHA8505,Grange Reserve Soccer Complex,,Hogans,Road,HOPPERS CROSSING,3029,-37.860885,144.676572,26622,Soccer,2,Grass,0 - 5 Years,5. Very Good,N/A,"Umpire/Officials, Unisex",WYNDHAM
144.752502,-37.909351,9019,WYNDHA11003,Saltwater Reserve,,Point Cook,Road,POINT COOK,3030,-37.909351,144.752502,26580,Soccer,3,Artificial Turf,0 - 5 Years,5. Very Good,,"Female, Male, Umpire/Officials, Unisex",WYNDHAM
144.727529,-37.89401,9020,WYNDHA11004,Tom Roberts Parade Reserve,,Tom Robert,Parade,POINT COOK,3030,-37.89401,144.727529,26583,Soccer,2,Grass,0 - 5 Years,5. Very Good,,"Female, Male, Umpire/Officials, Unisex",WYNDHAM
144.702157,-37.892629,9021,WYNDHA8526,VU Wyndham Sporting Complex,,Hoppers,Lane,WERRIBEE,3030,-37.892629,144.702157,26677,Soccer,1,Grass,6 - 10 Years,4. Good,< 1 Years,"Female, Male",WYNDHAM
144.764933,-37.852136,9023,WYNDHA8511,Laurie Emmins Reserve,,Sayers,Road,LAVERTON NORTH,3026,-37.852136,144.764933,26637,Softball,1,Grass,11 - 25 Years,2. Poor,6 - 10 Years,,WYNDHAM
144.691056,-37.869127,9025,WYNDHA8500,Fenix Fitness Club Hoppers Crossing,116,Mossfiel,Drive,HOPPERS CROSSING,3029,-37.869127,144.691056,26614,Swimming,,"25m Pool - Indoor, Spa/Sauna",,,,,WYNDHAM
144.729,-37.866,9026,WYNDHA8523,Shawn's Swim School,35,Richards,Road,HOPPERS CROSSING,3029,-37.866,144.729,26671,Swimming,,25m Pool - Indoor,,,,,WYNDHAM
144.651882,-37.906041,9027,WYNDHA8528,Werribee Olympic Pool,,Watton,Street,WERRIBEE,3030,-37.906041,144.651882,26680,Swimming,3,"50m Pool - Outdoor, Recreation / Play Water Space, Toddlers Pool",,5. Very Good,1 - 5 Years,"Female, Male, Unisex",WYNDHAM
144.683355,-37.882173,9028,WYNDHA8533,Wyndham Leisure & Events Centre,,Derrimut,Road,HOPPERS CROSSING,3029,-37.882173,144.683355,26694,Swimming,5,"50m Pool - Indoor, Recreation / Play Water Space, Rehabilitation Pool, Spa/Sauna, Toddlers Pool",11 - 25 Years,5. Very Good,,"Female, Male, Unisex",WYNDHAM
144.675717,-37.871069,9030,WYNDHA8494,Cambridge Reserve,,Barber,Drive,HOPPERS CROSSING,3029,-37.871069,144.675717,26598,Tennis (Outdoor),6,Hard Court,11 - 25 Years,4. Good,1 - 5 Years,"Female, Male",WYNDHAM
144.652061,-37.904815,9031,WYNDHA8495,Chirnside Park,,Watton,Street,WERRIBEE,3030,-37.904815,144.652061,26602,Tennis (Outdoor),2,Hard Court,,4. Good,< 1 Years,"Female, Male",WYNDHAM
144.692773,-37.86949,9034,WYNDHA8508,Hoppers Crossing Club,,Pannam,Drive,HOPPERS CROSSING,3029,-37.86949,144.692773,26630,Tennis (Outdoor),2,,,,,,WYNDHAM
144.748532,-37.896312,9035,WYNDHA8510,Jamieson Way Tennis & Netball Complex,,Jamieson,Way,POINT COOK,3030,-37.896312,144.748532,26634,Tennis (Outdoor),4,Hard Court,0 - 5 Years,4. Good,N/A,"Female, Male",WYNDHAM
144.691765,-37.973368,9038,WYNDHA8519,Price Reserse,,Beach,Road,WERRIBEE,3030,-37.973368,144.691765,26662,Tennis (Outdoor),2,Hard Court,26 - 50 Years,3. Average,,,WYNDHAM
144.762714,-37.896097,9040,WYNDHA8522,Sanctuary Lakes Golf Club,,Greg Norman,Drive,POINT COOK,3030,-37.896097,144.762714,26670,Tennis (Outdoor),3,,,,,,WYNDHAM
144.751023,-37.885605,9042,WYNDHA8531,Willow Green Park Tennis Courts,,Spindrift,Way,POINT COOK,3030,-37.885605,144.751023,26690,Tennis (Outdoor),2,Hard Court,6 - 10 Years,3. Average,,,WYNDHAM
144.66,-37.8565,9043,WYNDHA11006,Wootten Road Reserve,,Wootten,Road,TARNEIT,3029,-37.8565,144.66,26588,Tennis (Outdoor),9,Hard Court,0 - 5 Years,5. Very Good,,"Female, Male, Umpire/Officials, Unisex",WYNDHAM
144.619546,-37.887244,9044,WYNDHA8532,Wyndham Green Tennis Courts,,Amber,Place,WYNDHAM VALE,3024,-37.887244,144.619546,26691,Tennis (Outdoor),1,Hard Court,6 - 10 Years,3. Average,,,WYNDHAM
144.726537,-37.851221,9045,WYNDHA8535,Wyndham Waters,,Sayers,Road,TRUGANINA,3029,-37.851221,144.726537,26697,Tennis (Outdoor),2,,,,,,WYNDHAM
144.49856,-37.960711,3205,GEELON5332,Granite Road Circuit,,You Yangs,Road,LITTLE RIVER,,-37.960711,144.49856,27579,Cycling,1,Road,,,,,WYNDHAM
144.721688,-37.822483,3952,HOBSON11346,Truganina Club Grounds,,Woods,Road,TRUGANINA,3029,-37.822483,144.721688,26854,Equestrian,,,,,,,WYNDHAM
144.680496,-37.875501,8907,WYNDHA8491,Aeromax Fitness Health Club,,Derrimut,Road,WERRIBEE,3030,-37.875501,144.680496,26591,Aerobics,,,,,,,WYNDHAM
144.70575,-37.849675,8908,WYNDHA8496,Contours Tarneit,,Sayers,Road,HOPPERS CROSSING,3029,-37.849675,144.70575,26604,Aerobics,,,,,,,WYNDHAM
144.673475,-37.894273,8909,WYNDHA8497,Curves For Women,87-89,Railway,Avenue,WERRIBEE,3030,-37.894273,144.673475,26606,Aerobics,,,,,,,WYNDHAM
144.702,-37.847983,8910,WYNDHA8499,EFM Health Clubs Tarneit,35,Thomas Carr,Drive,TARNEIT,3029,-37.847983,144.702,26610,Aerobics,,,,,,,WYNDHAM
144.735125,-37.884,8912,WYNDHA8501,Fenix Fitness Club Point Cook,2,Main,Street,POINT COOK,3030,-37.884,144.735125,26615,Aerobics,,,,,,,WYNDHAM
144.661842,-37.898392,8913,WYNDHA8509,In-Balance Fitness Werribee,3,Manly,Street,WERRIBEE,3030,-37.898392,144.661842,26631,Aerobics,,,,,,,WYNDHAM
144.61474,-37.876367,8914,WYNDHA8513,Manor Lake Fitness,,Manor Lakes,Boulevard,WYNDHAM VALE,3024,-37.876367,144.61474,26642,Aerobics,,,,,,,WYNDHAM
144.72919,-37.871074,8915,WYNDHA8515,My Gym Hoppers Crossing,,Graham,Court,HOPPERS CROSSING,3029,-37.871074,144.72919,26650,Aerobics,,,,,,,WYNDHAM
144.717075,-37.872529,8916,WYNDHA8517,Platinum Health Club Hoppers Crossing,1,Motto,Court,HOPPERS CROSSING,3029,-37.872529,144.717075,26654,Aerobics,,,,,,,WYNDHAM
144.7465,-37.871958,8917,WYNDHA8520,Re-Creation Health Club Point Cook,22-30,Wallave,Avenue,POINT COOK,3030,-37.871958,144.7465,26663,Aerobics,,,,,,,WYNDHAM
144.739994,-37.884435,8922,WYNDHA8498,Dunnings Road Reserve,,Dunnings,Road,POINT COOK,3030,-37.884435,144.739994,26608,Australian Rules Football,1,Grass,6 - 10 Years,3. Average,6 - 10 Years,"Female, Male, Umpire/Officials",WYNDHAM
144.677344,-37.836511,8924,WYNDHA10999,Goddard Street Reserve,,Goddard,Street,TARNEIT,3029,-37.836511,144.677344,26568,Australian Rules Football,2,Grass,0 - 5 Years,5. Very Good,,"Female, Male, Umpire/Officials, Unisex",WYNDHAM
144.674132,-37.885029,8925,WYNDHA8506,Heathdale Glen Orden Reserve,,Kookaburra,Avenue,WERRIBEE,3030,-37.885029,144.674132,26624,Australian Rules Football,2,Grass,26 - 50 Years,4. Good,< 1 Years,"Umpire/Officials, Unisex",WYNDHAM
144.694398,-37.86262,8926,WYNDHA8507,Hogans Road Reserve,,Hogans,Road,HOPPERS CROSSING,3029,-37.86262,144.694398,26627,Australian Rules Football,2,Grass,26 - 50 Years,3. Average,Upgrade in progress,"Umpire/Officials, Unisex",WYNDHAM
144.60441,-37.875561,8927,WYNDHA11001,Howqua Way Reserve,,Howqua,Way,WYNDHAM VALE,3024,-37.875561,144.60441,26572,Australian Rules Football,1,Grass,0 - 5 Years,5. Very Good,,"Female, Male, Umpire/Officials, Unisex",WYNDHAM
144.737757,-37.907501,8930,WYNDHA11002,Prudence Parade Reserve,,Prudence,Parade,POINT COOK,3030,-37.907501,144.737757,26574,Australian Rules Football,1,Grass,0 - 5 Years,5. Very Good,,"Female, Male, Umpire/Officials, Unisex",WYNDHAM
144.666933,-37.905382,8933,WYNDHA8524,Soldiers Reserve,,College,Road,WERRIBEE,3030,-37.905382,144.666933,26672,Australian Rules Football,1,Grass,26 - 50 Years,4. Good,1 - 5 Years,"Umpire/Officials, Unisex",WYNDHAM
144.688805,-37.885037,8934,WYNDHA8527,Warringa Crescent Reserve,,Warringa,Crescent,HOPPERS CROSSING,3029,-37.885037,144.688805,26678,Australian Rules Football,1,Grass,11 - 25 Years,4. Good,,"Female, Male, Unisex",WYNDHAM
144.729621,-37.900012,8935,WYNDHA11005,Windorah Drive Reserve,,Windorah,Drive,POINT COOK,3030,-37.900012,144.729621,26584,Australian Rules Football,1,Grass,0 - 5 Years,5. Very Good,,"Female, Male, Umpire/Officials, Unisex",WYNDHAM
144.624357,-37.899304,8937,WYNDHA8534,Wyndham Vale Reserve,,Honour,Avenue,WYNDHAM VALE,3024,-37.899304,144.624357,26695,Australian Rules Football,1,Grass,11 - 25 Years,3. Average,1 - 5 Years,"Umpire/Officials, Unisex",WYNDHAM
144.623519,-37.900235,8938,WYNDHA11007,Wyndham Vale South Reserve,,Black Forest,Road,WERRIBEE,3030,-37.900235,144.623519,26589,Australian Rules Football,2,Grass,0 - 5 Years,5. Very Good,,"Female, Male, Umpire/Officials, Unisex",WYNDHAM
144.719874,-37.869807,8946,WYNDHA8493,BoxingFit Hoppers Crossing,75-85,Elm Park,Drive,HOPPERS CROSSING,3029,-37.869807,144.719874,26595,Boxing,,,,,,,WYNDHAM
144.627805,-37.902769,8974,WYNDHA8504,Gordon O'Keefe Reserve,,Black Forest,Road,WERRIBEE,3030,-37.902769,144.627805,26621,Equestrian,,,,,,,WYNDHAM
144.680757,-37.87829,8988,WYNDHA8525,Victorian University Fitness Centres,,Hoppers,Lane,WERRIBEE,3030,-37.87829,144.680757,26674,Fitness / Gymnasium Workouts,,,,,,,WYNDHAM
144.671747,-37.938135,8992,WYNDHA8529,Werribee Park Golf Club,,K,Road,WERRIBEE,3030,-37.938135,144.671747,26681,Golf,,18 Hole Course - Public,,,,,WYNDHAM
144.723385,-37.874099,8993,WYNDHA11477,Gym Monkeys,3,Shaft,Court,HOPPERS CROSSING,3029,-37.874099,144.723385,27378,Gymnastics,,,,,,,WYNDHAM
144.728917,-37.871781,8994,WYNDHA11478,Resilience Gymnastic,15,Graham,Court,HOPPERS CROSSING,3029,-37.871781,144.728917,27379,Gymnastics,,,,,,,WYNDHAM
144.658592,-37.915129,8995,WYNDHA11522,Werribee Gymnastic Club,52,Riverside,Avenue,WERRIBEE,3030,-37.915129,144.658592,27380,Gymnastics,,,,,,,WYNDHAM
144.651117,-37.905445,8998,WYNDHA4281,Werribee RSL Bowls Club,,Watton,Street,WERRIBEE,3030,-37.905445,144.651117,26751,Lawn Bowls,3,"Artificial Turf, Grass",,4. Good,1 - 5 Years,"Female, Male",WYNDHAM
144.836154,-37.79601,1384,BRIMBA8361,JR Parsons Reserve,,Stanford,Street,SUNSHINE,3020,-37.79601,144.836154,26343,Athletics,,,,,,,BRIMBANK
144.855205,-37.714786,1385,BRIMBA8369,Keilor Park Recreational Reserve,,Stadium,Drive,KEILOR PARK,3042,-37.714786,144.855205,26354,Athletics,1,,,,,,BRIMBANK
144.795845,-37.773301,1386,BRIMBA8381,Moore Park,,Esmond,Street,DEER PARK,3023,-37.773301,144.795845,26381,Athletics,,,,,,,BRIMBANK
144.774164,-37.764036,1387,BRIMBA8391,Sassella Park,,Station,Road,DEER PARK,3023,-37.764036,144.774164,26393,Athletics,1,,,,,,BRIMBANK
144.800896,-37.7868,1388,BRIMBA8324,Ainsworth Reserve,,Glengala,Road,SUNSHINE,3020,-37.7868,144.800896,26286,Australian Rules Football,1,Grass,,,,,BRIMBANK
144.793563,-37.758821,1389,BRIMBA8335,Cairnlea Park,,Furlong,Road,CAIRNLEA,3023,-37.758821,144.793563,26301,Australian Rules Football,1,Grass,,,,,BRIMBANK
144.777832,-37.771846,1390,BRIMBA8344,Deer Park Reserve,,Ballarat,Road,DEER PARK,3023,-37.771846,144.777832,26313,Australian Rules Football,,Grass,,,,,BRIMBANK
144.7741,-37.7164,1391,BRIMBA8345,Delahey Recreation Reserve,,Goldsmith,Avenue,DELAHEY,3037,-37.7164,144.7741,26315,Australian Rules Football,,Grass,,,,,BRIMBANK
144.837725,-37.775225,1392,BRIMBA8346,Dempster Park,,Phoenix,Street,SUNSHINE,3020,-37.775225,144.837725,26318,Australian Rules Football,1,Grass,,,,,BRIMBANK
144.803277,-37.745542,1393,BRIMBA8348,Errington Reserve,,Percy,Street,ST ALBANS,3021,-37.745542,144.803277,26322,Australian Rules Football,1,Grass,,,,,BRIMBANK
144.818828,-37.725518,1394,BRIMBA8355,Green Gully Reserve,,Green Gully,Road,KEILOR,3036,-37.725518,144.818828,26331,Australian Rules Football,1,Grass,,,,,BRIMBANK
144.777673,-37.771918,1395,BRIMBA8360,John McLeod Reserve,,Hume,Street,DEER PARK,3023,-37.771918,144.777673,26341,Australian Rules Football,,Grass,,,,,BRIMBANK
144.832595,-37.717403,1398,BRIMBA8371,Keilor Recreation Reserve,,Old Calder,Highway,KEILOR,3036,-37.717403,144.832595,26362,Australian Rules Football,1,Grass,,,,,BRIMBANK
144.793504,-37.758816,1399,BRIMBA8372,Kevin Flint Reserve,,Furlong,Road,CAIRNLEA,3023,-37.758816,144.793504,26365,Australian Rules Football,1,Grass,,,,,BRIMBANK
144.776658,-37.732765,1400,BRIMBA8375,Kings Park,,Gillespie,Road,ST ALBANS,3021,-37.732765,144.776658,26370,Australian Rules Football,1,Grass,,,,,BRIMBANK
144.791658,-37.708386,1401,BRIMBA8377,Lionheart Reserve,,Lionheart,Avenue,TAYLORS LAKES,3038,-37.708386,144.791658,26374,Australian Rules Football,2,Grass,,,,,BRIMBANK
144.77654,-37.754068,1402,BRIMBA8389,Robert Bruce Reserve,,Gould,Street,DEER PARK,3023,-37.754068,144.77654,26390,Australian Rules Football,1,Grass,,,,,BRIMBANK
144.814164,-37.781765,1403,BRIMBA8392,Selwyn Park,,Selwyn,Street,ALBION,3020,-37.781765,144.814164,26395,Australian Rules Football,1,Grass,,,,,BRIMBANK
144.811911,-37.799758,1404,BRIMBA8403,Tallintyre Reserve,,Kermeen,Street,SUNSHINE,3020,-37.799758,144.811911,26415,Australian Rules Football,1,Grass,,,,,BRIMBANK
144.825909,-37.781009,1405,BRIMBA8329,Barclay Reserve,,Talmage,Street,ALBION,3020,-37.781009,144.825909,26295,Baseball,1,,,,,,BRIMBANK
144.784559,-37.740071,1406,BRIMBA8332,Brimbank College,,Jamieson,Street,ST ALBANS,3021,-37.740071,144.784559,26298,Basketball,,,,,,,BRIMBANK
144.848237,-37.713334,1407,BRIMBA8364,Keilor Basketball Stadium,,Stadium,Drive,KEILOR PARK,3042,-37.713334,144.848237,26348,Basketball,3,,,,,,BRIMBANK
144.760113,-37.702404,1408,BRIMBA8402,Sydenham Primary School,,Community,Hub,SYDENHAM,3037,-37.702404,144.760113,26414,Basketball,,,,,,,BRIMBANK
144.812193,-37.798696,1409,BRIMBA8407,West Sunshine Community Centre,25,Kermeen,Street,SUNSHINE,3020,-37.798696,144.812193,26421,Basketball,,,,,,,BRIMBANK
144.837251,-37.73029,1410,BRIMBA8333,Brimbank Park,,Keilor Park,Drive,KEILOR,3036,-37.73029,144.837251,26299,BMX,,,,,,,BRIMBANK
144.810941,-37.770928,1411,BRIMBA8336,Carrington Reserve,,Carrington,Drive,ALBION,3020,-37.770928,144.810941,26303,BMX,,,,,,,BRIMBANK
144.843339,-37.783767,1414,BRIMBA8379,Max Bowman Gymnasium,10,Dorothy,Avenue,SUNSHINE,3020,-37.783767,144.843339,26379,Boxing,,,,,,,BRIMBANK
144.808299,-37.717249,1415,BRIMBA8367,Keilor Downs Primary School,,Swindon,Crescent,KEILOR DOWNS,3038,-37.717249,144.808299,26352,Callisthenics,,,,,,,BRIMBANK
144.810649,-37.742532,1416,BRIMBA8395,St Albans East Primary School,,Station,Avenue,ST ALBANS,3021,-37.742532,144.810649,26405,Callisthenics,,,,,,,BRIMBANK
144.823844,-37.797168,1418,BRIMBA8327,Arthur Beachley Reserve,,Ardoyne,Street,SUNSHINE,3020,-37.797168,144.823844,26291,Cricket,1,,,,,,BRIMBANK
144.765845,-37.791913,1419,BRIMBA8328,Balmoral Park Reserve,,Windsor,Boulevard,DERRIMUT,3030,-37.791913,144.765845,26293,Cricket,2,,,,,,BRIMBANK
144.763948,-37.774227,1420,BRIMBA8331,Bon Thomas Reserve,,Bayliss,Road,DEER PARK,3023,-37.774227,144.763948,26297,Cricket,2,Synthetic Pitch,,,,,BRIMBANK
144.774144,-37.745439,1424,BRIMBA8347,Diamond Reserve,,Diamond,Avenue,ALBANVALE,3021,-37.745439,144.774144,26321,Cricket,1,Synthetic Pitch,,,,,BRIMBANK
144.822827,-37.764186,1434,BRIMBA8378,Loyd Reserve,,Lurg,Avenue,ST ALBANS,3021,-37.764186,144.822827,26377,Cricket,1,,,,,,BRIMBANK
144.774682,-37.773404,1437,BRIMBA8342,Deer Park Hall,50,Station,Road,DEER PARK,3023,-37.773404,144.774682,26310,Dancing,,,,,,,BRIMBANK
144.816638,-37.790274,1438,BRIMBA8354,Glengala Community Centre,,Glengala,Road,SUNSHINE,3020,-37.790274,144.816638,26330,Dancing,,,,,,,BRIMBANK
144.833525,-37.719093,1439,BRIMBA8382,Old Shire Hall,,Old Calder,Highway,KEILOR,3036,-37.719093,144.833525,26383,Dancing,,,,,,,BRIMBANK
144.815068,-37.745952,1440,BRIMBA8394,St Albans Community Youth Club,,Main,Road East,ST ALBANS,3021,-37.745952,144.815068,26401,Dancing,,,,,,,BRIMBANK
144.8272,-37.740183,1441,BRIMBA8405,Urban Force Studio,,Sunshine,Avenue,KEALBA,3021,-37.740183,144.8272,26418,Dancing,,,,,,,BRIMBANK
144.780034,-37.737296,1442,BRIMBA8408,Westvale Community Centre,,Kings,Road,ST ALBANS,3021,-37.737296,144.780034,26425,Dancing,,,,,,,BRIMBANK
144.806626,-37.72728,1443,BRIMBA5539,Anytime Fitness Keilor Downs,80,Taylors,Road,KEILOR DOWNS,3038,-37.72728,144.806626,27883,Fitness / Gymnasium Workouts,,,,,,,BRIMBANK
144.80018,-37.747165,1444,BRIMBA8334,Brimbank Sports Centre,,McKechnie,Street,ST ALBANS,3021,-37.747165,144.80018,26300,Fitness / Gymnasium Workouts,,,,,,,BRIMBANK
144.774151,-37.700147,1446,BRIMBA8349,Fenix Fitness Taylors Lakes,399,Melton,Highway,TAYLORS LAKES,3038,-37.700147,144.774151,26325,Fitness / Gymnasium Workouts,,,,,,,BRIMBANK
144.767025,-37.695334,1447,BRIMBA8350,Fernwood Gym,511/521,Melton,Highway,SYDENHAM,3037,-37.695334,144.767025,26326,Fitness / Gymnasium Workouts,,,,,,,BRIMBANK
144.774459,-37.700632,1450,BRIMBA5538,Goodlife Health Clubs Taylors Lakes,399,Melton,Highway,TAYLORS LAKES,3038,-37.700632,144.774459,27882,Fitness / Gymnasium Workouts,,,,,,,BRIMBANK
144.796567,-37.744148,1451,BRIMBA8357,Health Club 101,101,Main,Road West,ST ALBANS,3021,-37.744148,144.796567,26337,Fitness / Gymnasium Workouts,,,,,,,BRIMBANK
144.789464,-37.707826,1452,BRIMBA8362,Kaye's Unique Toning,,Sceptre,Court,TAYLORS LAKES,3038,-37.707826,144.789464,26347,Fitness / Gymnasium Workouts,,,,,,,BRIMBANK
144.767008,-37.695258,1453,BRIMBA8374,Kieser Training,15/17,Overton Lea,Boulevard,SYDENHAM,3037,-37.695258,144.767008,26369,Fitness / Gymnasium Workouts,,,,,,,BRIMBANK
144.79779,-37.701702,1454,BRIMBA5541,Kore Wellness & Swim School,7,Melton,Highway,TAYLORS LAKES,3038,-37.701702,144.79779,27885,Fitness / Gymnasium Workouts,,,,,,"Female, Male",BRIMBANK
144.827799,-37.780525,1455,BRIMBA8386,Platinum Health & Pilates,151,Anderson,Street,SUNSHINE,3020,-37.780525,144.827799,26387,Fitness / Gymnasium Workouts,,,,,,,BRIMBANK
144.789894,-37.79186,1456,BRIMBA5533,Run With Me Fitness Club Sunshine West,42746,David,Drive,SUNSHINE WEST,3020,-37.79186,144.789894,27876,Fitness / Gymnasium Workouts,,,,,,,BRIMBANK
144.833454,-37.787273,1457,BRIMBA8390,Samurai Karate Sunshine,54A,Station,Place,SUNSHINE,3020,-37.787273,144.833454,27877,Fitness / Gymnasium Workouts,,,,,,,BRIMBANK
144.798147,-37.752777,1458,BRIMBA8393,St Albans Campus Fitness Centre,,McKechnie,Street,ST ALBANS,3021,-37.752777,144.798147,26399,Fitness / Gymnasium Workouts,,,,,,,BRIMBANK
144.804954,-37.728203,1459,BRIMBA8396,St Albans Leisure Centre,90,Taylors,Road,ST ALBANS,3021,-37.728203,144.804954,26406,Fitness / Gymnasium Workouts,,,,,,,BRIMBANK
144.835023,-37.784577,1460,BRIMBA8401,Sunshine Swim & Leisure Centre,5,Kennedy,Street,SUNSHINE,3020,-37.784577,144.835023,26412,Fitness / Gymnasium Workouts,,,,,,,BRIMBANK
144.80096,-37.703161,1461,BRIMBA8404,The Lakes Health & Fitness Centre,555,Sunshine,Avenue,SUNSHINE,3020,-37.703161,144.80096,26416,Fitness / Gymnasium Workouts,,,,,,"Female, Male",BRIMBANK
144.828995,-37.779588,1463,BRIMBA8330,World Gym Sunshine,131,Harvester,Road,SUNSHINE,3020,-37.779588,144.828995,26296,Fitness / Gymnasium Workouts,,,,,,,BRIMBANK
144.817151,-37.805148,1464,BRIMBA5534,Xplode 24 Hr Gym,656,Somerville,Road,SUNSHINE WEST,3020,-37.805148,144.817151,27878,Fitness / Gymnasium Workouts,,,,,,,BRIMBANK
144.793983,-37.684865,1465,BRIMBA8370,Keilor Public Golf Course and Driving Range,540,Calder,Highway,KEILOR,3036,-37.684865,144.793983,26361,Golf,18,18 Hole Course - Public,,,,,BRIMBANK
144.773947,-37.793618,1466,BRIMBA8399,Sunshine Golf Club,475,Mt Derrimut,Road,DERRIMUT,3020,-37.793618,144.773947,26410,Golf,1,18 Hole Course - Public,,,,,BRIMBANK
144.827302,-37.740416,1467,BRIMBA11479,Gymnastics Unlimited,12,Malcolm,Court,KELBA,3021,-37.740416,144.827302,27312,Gymnastics,,,,,,,BRIMBANK
144.827255,-37.740374,1468,BRIMBA8356,Gymnastics Unlimited Australia,43073,Sunshine,Avenue,KEALBA,3021,-37.740374,144.827255,26336,Gymnastics,,,,,,,BRIMBANK
144.781168,-37.770581,1471,BRIMBA8341,Deer Park Bowling Club,780,Ballarat,Road,DEER PARK,3023,-37.770581,144.781168,26309,Lawn Bowls,2,Grass,,,,,BRIMBANK
144.832315,-37.716472,1472,BRIMBA8365,Keilor Bowls Club,1,Barcelona,Avenue,KEILOR,3036,-37.716472,144.832315,26350,Lawn Bowls,2,Grass,,,,,BRIMBANK
144.837631,-37.786648,1473,BRIMBA8373,Kevin Wheelan Gardens,,Dickson,Street,SUNSHINE,3020,-37.786648,144.837631,26368,Lawn Bowls,2,Grass,,,,,BRIMBANK
144.776375,-37.731574,1474,BRIMBA4258,St Albans Bowls Club,,Magnolia,Avenue,ST ALBANS,3021,-37.731574,144.776375,26726,Lawn Bowls,1,Grass,,,,,BRIMBANK
144.824134,-37.779357,1475,BRIMBA8398,Sunshine City Bowls Club,24,Talmage,Street,SUNSHINE,3020,-37.779357,144.824134,26409,Lawn Bowls,2,Grass,,,,,BRIMBANK
144.778911,-37.771206,1477,BRIMBA8359,Hunt Club Community Arts Centre,775,Ballarat,Road,DEER PARK,3023,-37.771206,144.778911,26340,Martial Arts,,,,,,,BRIMBANK
144.800567,-37.744557,1479,BRIMBA8409,Wright Martial Arts Centre,327,Main,Road East,ST ALBANS,3021,-37.744557,144.800567,26426,Martial Arts,,,,,,,BRIMBANK
144.760049,-37.702186,1480,BRIMBA8340,Copperfield Secondary College,65-75,Community,Hub,SYDENHAM,3037,-37.702186,144.760049,26308,Netball,2,Asphalt,,,,,BRIMBANK
144.829672,-37.773235,1482,BRIMBA8400,Sunshine Roller Skating Centre,38,McIntyre,Road,SUNSHINE,3020,-37.773235,144.829672,26411,Roller Sports - Other,,,,,,,BRIMBANK
144.803402,-37.728044,1483,BRIMBA8385,Packard Street Reserve,,Packard,Street,KEILOR DOWNS,3038,-37.728044,144.803402,26386,Skating,1,,,,,,BRIMBANK
144.806221,-37.778452,1485,BRIMBA8326,Ardeer Reserve,8,Helene,Street,ARDEER,3022,-37.778452,144.806221,26290,Soccer,1,Grass,,,,,BRIMBANK
144.815455,-37.791316,1489,BRIMBA8337,Castley Reserve,,Simmie,Street,SUNSHINE WEST,3037,-37.791316,144.815455,26305,Soccer,,,,,,,BRIMBANK
144.828573,-37.785266,1490,BRIMBA8338,Chaplin Reserve,112-116,Anderson,Road,SUNSHINE,3020,-37.785266,144.828573,26306,Soccer,1,Grass,,,,,BRIMBANK
144.814423,-37.733267,1491,BRIMBA8339,Churchill Reserve,,Fox,Street,ST ALBANS,3021,-37.733267,144.814423,26307,Soccer,3,Grass,,,,,BRIMBANK
144.777599,-37.688274,1493,BRIMBA8368,Keilor Lodge Reserve,,Robertsons,Road,SYDENHAM,3037,-37.688274,144.777599,26353,Soccer,2,Grass,,,,,BRIMBANK
144.819192,-37.749222,1496,BRIMBA8376,Larisa Reserve,,Larisa,Road,ST ALBANS,3021,-37.749222,144.819192,26373,Soccer,1,Grass,,,,,BRIMBANK
144.798335,-37.746701,1498,BRIMBA8380,McKechnie Reserve,,McKechnie,Street,ST ALBANS,3021,-37.746701,144.798335,26380,Soccer,2,Grass,,,,,BRIMBANK
144.80674,-37.770817,1499,BRIMBA8387,Polish Sports and Recreation Centre,19,Carrington,Drive,ALBION,3020,-37.770817,144.80674,26388,Soccer,2,Grass,,,,,BRIMBANK
144.799159,-37.792507,1500,BRIMBA8388,Ralph Reserve,,Ralph,Street,SUNSHINE,3020,-37.792507,144.799159,26389,Soccer,1,Grass,,,,,BRIMBANK
144.774914,-37.764058,1504,BRIMBA8343,Deer Park Regional Community Sports Complex,,Station,Road,DEER PARK,3023,-37.764058,144.774914,26312,Swimming,,,,,,,BRIMBANK
144.766512,-37.697338,1505,BRIMBA8352,Flippers Swimming School,50,Trickey,Avenue,SYDENHAM,3037,-37.697338,144.766512,26328,Swimming,,,,,,,BRIMBANK
144.803944,-37.728471,1513,BRIMBA8366,Keilor Downs Community Centre,70,Taylors,Road,KEILOR DOWNS,3038,-37.728471,144.803944,26351,Tae Kwon Do,,,,,,,BRIMBANK
144.807771,-37.745805,1514,BRIMBA8397,St Albans Secondary College,,Main,Road East,ST ALBANS,3021,-37.745805,144.807771,26408,Tae Kwon Do,,,,,,,BRIMBANK
144.82614,-37.777859,1515,BRIMBA8325,AMF Bowling,505,Ballarat,Road,SUNSHINE,3020,-37.777859,144.82614,26289,Ten Pin Bowling,,,,,,,BRIMBANK
144.842179,-37.785182,1526,BRIMBA8383,Our Lady's Tennis Club,,Devonshire,Road,SUNSHINE,3020,-37.785182,144.842179,26384,Tennis (Outdoor),4,,,,,,BRIMBANK
144.763776,-37.702497,1527,BRIMBA8384,Overton Lea Reserve,,Overton Lea,Boulevard,SYDENHAM,3037,-37.702497,144.763776,26385,Tennis (Outdoor),4,,,,,,BRIMBANK
144.70688,-37.891872,5307,MARIBY5281,Victoria University of Technology,,,,,,-37.891872,144.70688,27530,Cycling,1,,,,,,WYNDHAM
